{
  "venues": [
    {
      "id": 1,
      "name": "Modern Art Gallery",
      "address": "123 Contemporary Ave, New York",
      "image": "/images/modern-gallery.jpg",
      "description": "A cutting-edge gallery featuring contemporary artists from around the world. Known for its innovative installations and multimedia exhibitions.",
      "type": "gallery",
      "specialties": ["Contemporary", "Multimedia", "Installations"],
      "hours": "Tue-Sun: 10:00-18:00"
    },
    {
      "id": 2,
      "name": "Natural History Museum",
      "address": "987 Discovery Blvd, New York",
      "image": "/images/natural-museum.jpg",
      "description": "Explore millions of years of natural history through interactive exhibits, dinosaur fossils, and geological wonders.",
      "type": "museum",
      "specialties": ["Natural History", "Paleontology", "Geology"],
      "hours": "Mon-Sun: 9:00-17:30"
    },
    {
      "id": 3,
      "name": "Classical Art Museum",
      "address": "234 Renaissance Square, New Jersey",
      "image": "/images/classical-museum.jpg",
      "description": "Home to an extensive collection of European masterpieces from the Renaissance to the 19th century.",
      "type": "museum",
      "specialties": ["Classical Art", "Renaissance", "European Masters"],
      "hours": "Wed-Mon: 10:00-19:00"
    },
    {
      "id": 4,
      "name": "Photography Gallery",
      "address": "764 Lens Street, New York",
      "image": "/images/photo-gallery.jpg",
      "description": "Showcasing both historic and contemporary photography, featuring rotating exhibitions from renowned photographers.",
      "type": "gallery",
      "specialties": ["Photography", "Digital Art"],
      "hours": "Thu-Tue: 11:00-20:00"
    },
    {
      "id": 5,
      "name": "Science & Technology Museum",
      "address": "111 Innovation Drive, Detroit",
      "image": "/images/science-museum.jpg",
      "description": "Interactive exhibits demonstrating scientific principles and technological advances through hands-on experiences.",
      "type": "museum",
      "specialties": ["Science", "Technology", "Interactive Exhibits"],
      "hours": "Mon-Sun: 9:00-18:00"
    },
    {
      "id": 6,
      "name": "Contemporary Sculpture Garden",
      "address": "121 Outdoor Arts Way, Detroit",
      "image": "/images/sculpture-garden.jpg",
      "description": "An outdoor museum featuring large-scale contemporary sculptures set in beautiful landscaped gardens.",
      "type": "gallery",
      "specialties": ["Sculpture", "Outdoor Art", "Landscape Design"],
      "hours": "Daily: 8:00-Sunset"
    }
  ]
}